[
  {
    "name": "LES Coleman Skatepark",
    "sport_type": "skateboarding",
    "venue_type": "skatepark",
    "address": "62 Monroe St &, Pike St, New York, NY 10002, United States",
    "city": "New York",
    "state": "NY",
    "zip_code": "10002",
    "country": "US",
    "latitude": 40.7114977,
    "longitude": -73.9925976,
    "rating": 4.6,
    "review_count": 345,
    "google_place_id": "ChIJ3dyENi9awokR8YzXIeiKyVI",
    "description": "LES Coleman Skatepark - 62 Monroe St &, Pike St, New York, NY 10002, United States"
  },
  {
    "name": "Pier 62 Skatepark",
    "sport_type": "skateboarding",
    "venue_type": "skatepark",
    "address": "143 11th Ave, New York, NY 10011, United States",
    "city": "New York",
    "state": "NY",
    "zip_code": "10011",
    "country": "US",
    "latitude": 40.7487278,
    "longitude": -74.0094221,
    "rating": 4.4,
    "review_count": 186,
    "google_place_id": "ChIJfac61sdZwokRO-uFp1ZuuEE",
    "description": "Pier 62 Skatepark - 143 11th Ave, New York, NY 10011, United States"
  },
  {
    "name": "Andy Kessler Skate Park",
    "sport_type": "skateboarding",
    "venue_type": "skatepark",
    "address": "Riverside Dr &, W 108th St, New York, NY 10025, United States",
    "city": "New York",
    "state": "NY",
    "zip_code": "10025",
    "country": "US",
    "latitude": 40.8052159,
    "longitude": -73.9704934,
    "rating": 4.2,
    "review_count": 145,
    "google_place_id": "ChIJU6asYjr2wokR9hjAX6WsxjY",
    "description": "Andy Kessler Skate Park - Riverside Dr &, W 108th St, New York, NY 10025, United States"
  },
  {
    "name": "Substance Skatepark Brooklyn",
    "sport_type": "skateboarding",
    "venue_type": "skatepark",
    "address": "314 Scholes St, Brooklyn, NY 11206, United States",
    "city": "Brooklyn",
    "state": "NY",
    "zip_code": "11206",
    "country": "US",
    "latitude": 40.709455,
    "longitude": -73.93548489999999,
    "rating": 4.7,
    "review_count": 89,
    "google_place_id": "ChIJpzctgjRfwokR-qYG7FDy7aA",
    "description": "Substance Skatepark Brooklyn - 314 Scholes St, Brooklyn, NY 11206, United States"
  },
  {
    "name": "Williamsbridge Oval Skate Park",
    "sport_type": "skateboarding",
    "venue_type": "skatepark",
    "address": "Holt Place and, Reservoir Oval E, Bronx, NY 10467, United States",
    "city": "Bronx",
    "state": "NY",
    "zip_code": "10467",
    "country": "US",
    "latitude": 40.8776269,
    "longitude": -73.8763876,
    "rating": 4.5,
    "review_count": 1131,
    "google_place_id": "ChIJ7xIYSs7zwokRCZS69CQYvZA",
    "description": "Williamsbridge Oval Skate Park - Holt Place and, Reservoir Oval E, Bronx, NY 10467, United States"
  },
  {
    "name": "Tribeca Skatepark at Hudson River Park",
    "sport_type": "skateboarding",
    "venue_type": "skatepark",
    "address": "West Street &, N Moore St, New York, NY 10013, United States",
    "city": "New York",
    "state": "NY",
    "zip_code": "10013",
    "country": "US",
    "latitude": 40.719551,
    "longitude": -74.012773,
    "rating": 5,
    "review_count": 11,
    "google_place_id": "ChIJwS76wjdbwokRBSBYJ2fCjm4",
    "description": "Tribeca Skatepark at Hudson River Park - West Street &, N Moore St, New York, NY 10013, United States"
  },
  {
    "name": "Thomas Jefferson Park Skate Park",
    "sport_type": "skateboarding",
    "venue_type": "skatepark",
    "address": "East 114th Street and the FDR Drive Thomas Jefferson Park, New York, NY 10029, United States",
    "city": "New York",
    "state": "NY",
    "zip_code": "10029",
    "country": "US",
    "latitude": 40.7932541,
    "longitude": -73.93363389999999,
    "rating": 4.4,
    "review_count": 439,
    "google_place_id": "ChIJCRfazv31wokReTlaNYDBSlk",
    "description": "Thomas Jefferson Park Skate Park - East 114th Street and the FDR Drive Thomas Jefferson Park, New York, NY 10029, United States"
  },
  {
    "name": "Rev. T. Wendell Foster Skate Park",
    "sport_type": "skateboarding",
    "venue_type": "skatepark",
    "address": "E 164th St &, River Ave, Bronx, NY 10452, United States",
    "city": "Bronx",
    "state": "NY",
    "zip_code": "10452",
    "country": "US",
    "latitude": 40.8311735,
    "longitude": -73.9243438,
    "rating": 4.3,
    "review_count": 333,
    "google_place_id": "ChIJzxo_AjL0wokRmfVl36_D2Qc",
    "description": "Rev. T. Wendell Foster Skate Park - E 164th St &, River Ave, Bronx, NY 10452, United States"
  },
  {
    "name": "Millennium Skate Park",
    "sport_type": "skateboarding",
    "venue_type": "skatepark",
    "address": "Colonial Rd, Brooklyn, NY 11220, United States",
    "city": "Brooklyn",
    "state": "NY",
    "zip_code": "11220",
    "country": "US",
    "latitude": 40.6409287,
    "longitude": -74.0302116,
    "rating": 4.5,
    "review_count": 154,
    "google_place_id": "ChIJZfejhv9PwokR4qaAOnr7aGo",
    "description": "Millennium Skate Park - Colonial Rd, Brooklyn, NY 11220, United States"
  },
  {
    "name": "Astoria Skate Park",
    "sport_type": "skateboarding",
    "venue_type": "skatepark",
    "address": "Hoyt Ave S, Astoria, NY 11102, United States",
    "city": "Astoria",
    "state": "NY",
    "zip_code": "11102",
    "country": "US",
    "latitude": 40.7776322,
    "longitude": -73.9254308,
    "rating": 4.6,
    "review_count": 146,
    "google_place_id": "ChIJ-1f0FFBfwokRT3tt_q27nSo",
    "description": "Astoria Skate Park - Hoyt Ave S, Astoria, NY 11102, United States"
  },
  {
    "name": "Coleman Playground",
    "sport_type": "skateboarding",
    "venue_type": "skatepark",
    "address": "Monroe St, New York, NY 10002, United States",
    "city": "New York",
    "state": "NY",
    "zip_code": "10002",
    "country": "US",
    "latitude": 40.7112051,
    "longitude": -73.99365449999999,
    "rating": 4.3,
    "review_count": 365,
    "google_place_id": "ChIJr5WyOC9awokRXnoOef0xDrU",
    "description": "Coleman Playground - Monroe St, New York, NY 10002, United States"
  },
  {
    "name": "Berry Lane Skatepark",
    "sport_type": "skateboarding",
    "venue_type": "skatepark",
    "address": "Jersey City, NJ 07304, United States",
    "city": "Jersey City",
    "state": "NJ",
    "zip_code": "07304",
    "country": "US",
    "latitude": 40.7124043,
    "longitude": -74.0669459,
    "rating": 4.8,
    "review_count": 73,
    "google_place_id": "ChIJ0ezCsH9RwokRxDN-eKbucLM",
    "description": "Berry Lane Skatepark - Jersey City, NJ 07304, United States"
  },
  {
    "name": "Far Rockaway Skate Park",
    "sport_type": "skateboarding",
    "venue_type": "skatepark",
    "address": "Seagirt Blvd, Far Rockaway, NY 11691, United States",
    "city": "Far Rockaway",
    "state": "NY",
    "zip_code": "11691",
    "country": "US",
    "latitude": 40.5951605,
    "longitude": -73.7465524,
    "rating": 4.5,
    "review_count": 264,
    "google_place_id": "ChIJ33i7xK1owokRYomFx5DPM8I",
    "description": "Far Rockaway Skate Park - Seagirt Blvd, Far Rockaway, NY 11691, United States"
  },
  {
    "name": "Canarsie Skate Park",
    "sport_type": "skateboarding",
    "venue_type": "skatepark",
    "address": "Seaview Ave. & Paedergat Ave. N Canarsie Park, Brooklyn, NY 11236, United States",
    "city": "Brooklyn",
    "state": "NY",
    "zip_code": "11236",
    "country": "US",
    "latitude": 40.6257426,
    "longitude": -73.9005643,
    "rating": 4.4,
    "review_count": 255,
    "google_place_id": "ChIJeZ3NndJcwokRZqSRe9fKFUI",
    "description": "Canarsie Skate Park - Seaview Ave. & Paedergat Ave. N Canarsie Park, Brooklyn, NY 11236, United States"
  },
  {
    "name": "Golconda Skate Park",
    "sport_type": "skateboarding",
    "venue_type": "skatepark",
    "address": "Golconda Playground, Brooklyn, NY 11201, United States",
    "city": "Brooklyn",
    "state": "NY",
    "zip_code": "11201",
    "country": "US",
    "latitude": 40.69785359999999,
    "longitude": -73.98225939999999,
    "rating": 4.4,
    "review_count": 141,
    "google_place_id": "ChIJAbD_2cpbwokRBd0CsdfPYO4",
    "description": "Golconda Skate Park - Golconda Playground, Brooklyn, NY 11201, United States"
  },
  {
    "name": "Brooklyn Banks",
    "sport_type": "skateboarding",
    "venue_type": "skatepark",
    "address": "355-365 Pearl St, New York, NY 10038, United States",
    "city": "New York",
    "state": "NY",
    "zip_code": "10038",
    "country": "US",
    "latitude": 40.71050710000001,
    "longitude": -74.0014451,
    "rating": 4.3,
    "review_count": 78,
    "google_place_id": "ChIJkcP0ZSNawokRtWQc24P5yhM",
    "description": "Brooklyn Banks - 355-365 Pearl St, New York, NY 10038, United States"
  },
  {
    "name": "Cooper Skate Park",
    "sport_type": "skateboarding",
    "venue_type": "skatepark",
    "address": "Cooper Park Sharon Street &, Olive St, Brooklyn, NY 11211, United States",
    "city": "Brooklyn",
    "state": "NY",
    "zip_code": "11211",
    "country": "US",
    "latitude": 40.71555,
    "longitude": -73.93647399999999,
    "rating": 4.5,
    "review_count": 116,
    "google_place_id": "ChIJE100PVNZwokRwlc477FgpdE",
    "description": "Cooper Skate Park - Cooper Park Sharon Street &, Olive St, Brooklyn, NY 11211, United States"
  },
  {
    "name": "McCarren Skatepark",
    "sport_type": "skateboarding",
    "venue_type": "skatepark",
    "address": "61 Bayard St, Brooklyn, NY 11222, United States",
    "city": "Brooklyn",
    "state": "NY",
    "zip_code": "11222",
    "country": "US",
    "latitude": 40.7193618,
    "longitude": -73.9497888,
    "rating": 4.4,
    "review_count": 95,
    "google_place_id": "ChIJvxuw6VpZwokR8AkXCfTJrxg",
    "description": "McCarren Skatepark - 61 Bayard St, Brooklyn, NY 11222, United States"
  },
  {
    "name": "Hudson River Park Skatepark.",
    "sport_type": "skateboarding",
    "venue_type": "skatepark",
    "address": "Hudson River Greenway, New York, NY 10282, United States",
    "city": "New York",
    "state": "NY",
    "zip_code": "10282",
    "country": "US",
    "latitude": 40.7195354,
    "longitude": -74.0127844,
    "rating": 4.5,
    "review_count": 34,
    "google_place_id": "ChIJM-po5B1awokRrN8vdrVn30Q",
    "description": "Hudson River Park Skatepark. - Hudson River Greenway, New York, NY 10282, United States"
  },
  {
    "name": "Maloof Skate Park",
    "sport_type": "skateboarding",
    "venue_type": "skatepark",
    "address": "Astral Fountain Flushing Meadows Corona Park, Corona, NY 11368, United States",
    "city": "Corona",
    "state": "NY",
    "zip_code": "11368",
    "country": "US",
    "latitude": 40.7431651,
    "longitude": -73.8432972,
    "rating": 4.5,
    "review_count": 133,
    "google_place_id": "ChIJx80TyNdfwokRpC2z88MKzhc",
    "description": "Maloof Skate Park - Astral Fountain Flushing Meadows Corona Park, Corona, NY 11368, United States"
  },
  {
    "name": "Rudd Skatepark",
    "sport_type": "skateboarding",
    "venue_type": "skatepark",
    "address": "55 Aberdeen St, Brooklyn, NY 11207, United States",
    "city": "Brooklyn",
    "state": "NY",
    "zip_code": "11207",
    "country": "US",
    "latitude": 40.6831798,
    "longitude": -73.905571,
    "rating": 4.5,
    "review_count": 33,
    "google_place_id": "ChIJnSd9d3xdwokRFkGLkiprW-E",
    "description": "Rudd Skatepark - 55 Aberdeen St, Brooklyn, NY 11207, United States"
  },
  {
    "name": "River Avenue Skate Park",
    "sport_type": "skateboarding",
    "venue_type": "skatepark",
    "address": "River Avenue Parks, 100 E 157th St, Bronx, NY 10451, United States",
    "city": "Bronx",
    "state": "NY",
    "zip_code": "10451",
    "country": "US",
    "latitude": 40.8253632,
    "longitude": -73.9270008,
    "rating": 4.4,
    "review_count": 207,
    "google_place_id": "ChIJ86Av1tL1wokRx29kjEgGFsk",
    "description": "River Avenue Skate Park - River Avenue Parks, 100 E 157th St, Bronx, NY 10451, United States"
  },
  {
    "name": "Kennedy Skate Park",
    "sport_type": "skateboarding",
    "venue_type": "skatepark",
    "address": "335 Greenwich St, Hempstead, NY 11550, United States",
    "city": "Hempstead",
    "state": "NY",
    "zip_code": "11550",
    "country": "US",
    "latitude": 40.69988499999999,
    "longitude": -73.61249579999999,
    "rating": 4.6,
    "review_count": 56,
    "google_place_id": "ChIJHWOqsIZ9wokRpRZrJaL4UV4",
    "description": "Kennedy Skate Park - 335 Greenwich St, Hempstead, NY 11550, United States"
  },
  {
    "name": "Owl's Head Park",
    "sport_type": "skateboarding",
    "venue_type": "skatepark",
    "address": "Colonial Road & 68 St &, Shore Rd, Brooklyn, NY 11220, United States",
    "city": "Brooklyn",
    "state": "NY",
    "zip_code": "11220",
    "country": "US",
    "latitude": 40.6401377,
    "longitude": -74.0322522,
    "rating": 4.6,
    "review_count": 2861,
    "google_place_id": "ChIJI1WoGf9PwokRN8Oy80EEUHE",
    "description": "Owl's Head Park - Colonial Road & 68 St &, Shore Rd, Brooklyn, NY 11220, United States"
  },
  {
    "name": "London Planetree Skate Park",
    "sport_type": "skateboarding",
    "venue_type": "skatepark",
    "address": "London Planetree Playground 89th St. &, Atlantic Ave, Jamaica, NY 11416, United States",
    "city": "Jamaica",
    "state": "NY",
    "zip_code": "11416",
    "country": "US",
    "latitude": 40.6863144,
    "longitude": -73.85329109999999,
    "rating": 4.5,
    "review_count": 99,
    "google_place_id": "ChIJ29urFRxdwokRMo3ehXxd--8",
    "description": "London Planetree Skate Park - London Planetree Playground 89th St. &, Atlantic Ave, Jamaica, NY 11416, United States"
  },
  {
    "name": "Homage Skateboard Academy",
    "sport_type": "skateboarding",
    "venue_type": "skatepark",
    "address": "83 3rd Ave, Brooklyn, NY 11217, United States",
    "city": "Brooklyn",
    "state": "NY",
    "zip_code": "11217",
    "country": "US",
    "latitude": 40.6836404,
    "longitude": -73.9814936,
    "rating": 4.6,
    "review_count": 46,
    "google_place_id": "ChIJMzAO3VFawokRXvpSPMMFyHw",
    "description": "Homage Skateboard Academy - 83 3rd Ave, Brooklyn, NY 11217, United States"
  },
  {
    "name": "Forest Park Skate Park",
    "sport_type": "skateboarding",
    "venue_type": "skatepark",
    "address": "Forest Park Woodhaven Blvd &, Myrtle Ave, Woodhaven, NY 11421, United States",
    "city": "Woodhaven",
    "state": "NY",
    "zip_code": "11421",
    "country": "US",
    "latitude": 40.7016688,
    "longitude": -73.85610249999999,
    "rating": 4.3,
    "review_count": 118,
    "google_place_id": "ChIJKeI92OpfwokRWBMHqy875ww",
    "description": "Forest Park Skate Park - Forest Park Woodhaven Blvd &, Myrtle Ave, Woodhaven, NY 11421, United States"
  },
  {
    "name": "Hamilton Bridge Skate Park",
    "sport_type": "skateboarding",
    "venue_type": "skatepark",
    "address": "2401 Amsterdam Avenue Highbridge Park, 7349, New York, NY 10033, United States",
    "city": "New York",
    "state": "NY",
    "zip_code": "10033",
    "country": "US",
    "latitude": 40.8464306,
    "longitude": -73.9300731,
    "rating": 4.1,
    "review_count": 86,
    "google_place_id": "ChIJQZrOqhj0wokRQj4Rvv_6qHo",
    "description": "Hamilton Bridge Skate Park - 2401 Amsterdam Avenue Highbridge Park, 7349, New York, NY 10033, United States"
  },
  {
    "name": "Maspeth Skate Park",
    "sport_type": "skateboarding",
    "venue_type": "skatepark",
    "address": "54-08 43rd St, Maspeth, NY 11378, United States",
    "city": "Maspeth",
    "state": "NY",
    "zip_code": "11378",
    "country": "US",
    "latitude": 40.7321146,
    "longitude": -73.9247036,
    "rating": 4.8,
    "review_count": 14,
    "google_place_id": "ChIJYwi8PPVfwokRMm5HE8kutpY",
    "description": "Maspeth Skate Park - 54-08 43rd St, Maspeth, NY 11378, United States"
  },
  {
    "name": "Betsy Head Skatepark",
    "sport_type": "skateboarding",
    "venue_type": "skatepark",
    "address": "Betsy Head Park, Dumont Ave, Brooklyn, NY 11212, United States",
    "city": "Brooklyn",
    "state": "NY",
    "zip_code": "11212",
    "country": "US",
    "latitude": 40.664827,
    "longitude": -73.9119335,
    "rating": 4.5,
    "review_count": 57,
    "google_place_id": "ChIJH1eJW4ZdwokR68U4eq5fdAU",
    "description": "Betsy Head Skatepark - Betsy Head Park, Dumont Ave, Brooklyn, NY 11212, United States"
  },
  {
    "name": "Seba Skate Park",
    "sport_type": "skateboarding",
    "venue_type": "skatepark",
    "address": "Gerritsen Ave, Brooklyn, NY 11234, United States",
    "city": "Brooklyn",
    "state": "NY",
    "zip_code": "11234",
    "country": "US",
    "latitude": 40.5888287,
    "longitude": -73.9198025,
    "rating": 4.3,
    "review_count": 157,
    "google_place_id": "ChIJhVjiOXZDwokRLHRABUxNfw4",
    "description": "Seba Skate Park - Gerritsen Ave, Brooklyn, NY 11234, United States"
  },
  {
    "name": "Gotham Park",
    "sport_type": "skateboarding",
    "venue_type": "skatepark",
    "address": "1 Rose St, New York, NY 10038, United States",
    "city": "New York",
    "state": "NY",
    "zip_code": "10038",
    "country": "US",
    "latitude": 40.7114931,
    "longitude": -74.0028131,
    "rating": 4.7,
    "review_count": 15,
    "google_place_id": "ChIJ10CA8cNbwokR0HrPX88YKFQ",
    "description": "Gotham Park - 1 Rose St, New York, NY 10038, United States"
  },
  {
    "name": "Ocean Hill Skate Park",
    "sport_type": "skateboarding",
    "venue_type": "skatepark",
    "address": "M3FQ+P7V, Brooklyn, NY 11233, United States",
    "city": "Brooklyn",
    "state": "NY",
    "zip_code": "11233",
    "country": "US",
    "latitude": 40.6743125,
    "longitude": -73.9118125,
    "rating": 4.7,
    "review_count": 22,
    "google_place_id": "ChIJrTNZFQBdwokRtb_YJdwejgE",
    "description": "Ocean Hill Skate Park - M3FQ+P7V, Brooklyn, NY 11233, United States"
  },
  {
    "name": "St. Mary's Skate Park",
    "sport_type": "skateboarding",
    "venue_type": "skatepark",
    "address": "Brooklyn, NY 11231, United States",
    "city": "Brooklyn",
    "state": "NY",
    "zip_code": "11231",
    "country": "US",
    "latitude": 40.6762826,
    "longitude": -73.9973279,
    "rating": 4.3,
    "review_count": 17,
    "google_place_id": "ChIJj6UW0kdbwokR4QNHenie6zw",
    "description": "St. Mary's Skate Park - Brooklyn, NY 11231, United States"
  },
  {
    "name": "West New York Skatepark",
    "sport_type": "skateboarding",
    "venue_type": "skatepark",
    "address": "6140 JFK Blvd E, West New York, NJ 07093, United States",
    "city": "West New York",
    "state": "NJ",
    "zip_code": "07093",
    "country": "US",
    "latitude": 40.7867664,
    "longitude": -74.00365409999999,
    "rating": 4.4,
    "review_count": 23,
    "google_place_id": "ChIJZW1DpSlZwokR_FqjoDabL68",
    "description": "West New York Skatepark - 6140 JFK Blvd E, West New York, NJ 07093, United States"
  },
  {
    "name": "Laurelton Skate Park",
    "sport_type": "skateboarding",
    "venue_type": "skatepark",
    "address": "137th Ave &, Brookville Blvd, Rosedale, NY 11422, United States",
    "city": "Rosedale",
    "state": "NY",
    "zip_code": "11422",
    "country": "US",
    "latitude": 40.6702252,
    "longitude": -73.73651269999999,
    "rating": 4.5,
    "review_count": 96,
    "google_place_id": "ChIJ03iPR-ZlwokRLM8PrMDKPI4",
    "description": "Laurelton Skate Park - 137th Ave &, Brookville Blvd, Rosedale, NY 11422, United States"
  },
  {
    "name": "Playground 134 Skate Park",
    "sport_type": "skateboarding",
    "venue_type": "skatepark",
    "address": "R33J+9P, Bronx, NY 10454, United States",
    "city": "Bronx",
    "state": "NY",
    "zip_code": "10454",
    "country": "US",
    "latitude": 40.80343750000001,
    "longitude": -73.9181875,
    "rating": 4.7,
    "review_count": 16,
    "google_place_id": "ChIJt9gg0Fj1wokR64Xo2NvCrnc",
    "description": "Playground 134 Skate Park - R33J+9P, Bronx, NY 10454, United States"
  },
  {
    "name": "Washington Park Skate Park",
    "sport_type": "skateboarding",
    "venue_type": "skatepark",
    "address": "Washington Park, 271-333 5th St, Brooklyn, NY 11215, United States",
    "city": "Brooklyn",
    "state": "NY",
    "zip_code": "11215",
    "country": "US",
    "latitude": 40.6724496,
    "longitude": -73.9858242,
    "rating": 4,
    "review_count": 66,
    "google_place_id": "ChIJz-dUYP5awokRD9I7RkSQTEU",
    "description": "Washington Park Skate Park - Washington Park, 271-333 5th St, Brooklyn, NY 11215, United States"
  },
  {
    "name": "Van Cortlandt Skate Park",
    "sport_type": "skateboarding",
    "venue_type": "skatepark",
    "address": "V4P2+XF, Broadway, Bronx, NY 10471, United States",
    "city": "Bronx",
    "state": "NY",
    "zip_code": "10471",
    "country": "US",
    "latitude": 40.8874375,
    "longitude": -73.89881249999999,
    "rating": 4.6,
    "review_count": 36,
    "google_place_id": "ChIJGeO8Bj3zwokRsaLPMfUOWwQ",
    "description": "Van Cortlandt Skate Park - V4P2+XF, Broadway, Bronx, NY 10471, United States"
  },
  {
    "name": "Rockaway Skate Park",
    "sport_type": "skateboarding",
    "venue_type": "skatepark",
    "address": "Boardwalk, Far Rockaway, NY 11693, United States",
    "city": "Far Rockaway",
    "state": "NY",
    "zip_code": "11693",
    "country": "US",
    "latitude": 40.5842005,
    "longitude": -73.81315599999999,
    "rating": 4.5,
    "review_count": 120,
    "google_place_id": "ChIJPUMjckZowokRD7C2fhkkzhg",
    "description": "Rockaway Skate Park - Boardwalk, Far Rockaway, NY 11693, United States"
  },
  {
    "name": "Wollman Rink",
    "sport_type": "ice_skating",
    "venue_type": "ice_rink",
    "address": "Q29G+46, 830 5th Ave, New York, NY 10065, United States",
    "city": "New York",
    "state": "NY",
    "zip_code": "10065",
    "country": "US",
    "latitude": 40.7677792,
    "longitude": -73.9744673,
    "rating": 4.3,
    "review_count": 1223,
    "google_place_id": "ChIJeelsevFYwokRqyH7P0aN2C8",
    "description": "Wollman Rink - Q29G+46, 830 5th Ave, New York, NY 10065, United States"
  },
  {
    "name": "The Rink At Rockefeller Center",
    "sport_type": "ice_skating",
    "venue_type": "ice_rink",
    "address": "600 5th Avenue, Rockefeller Center, New York, NY 10020, United States",
    "city": "New York",
    "state": "NY",
    "zip_code": "10020",
    "country": "US",
    "latitude": 40.7586996,
    "longitude": -73.978375,
    "rating": 4.5,
    "review_count": 1654,
    "google_place_id": "ChIJ-YgSkP5YwokRcudEVWB_-Qk",
    "description": "The Rink At Rockefeller Center - 600 5th Avenue, Rockefeller Center, New York, NY 10020, United States"
  },
  {
    "name": "Gottesman Rink at the Davis Center",
    "sport_type": "ice_skating",
    "venue_type": "ice_rink",
    "address": "110 Lenox Ave, New York, NY 10029, United States",
    "city": "New York",
    "state": "NY",
    "zip_code": "10029",
    "country": "US",
    "latitude": 40.7964677,
    "longitude": -73.95454939999999,
    "rating": 4.1,
    "review_count": 290,
    "google_place_id": "ChIJiU9VGu5YwokRfdQxcfg4bSs",
    "description": "Gottesman Rink at the Davis Center - 110 Lenox Ave, New York, NY 10029, United States"
  },
  {
    "name": "World Ice Arena",
    "sport_type": "ice_skating",
    "venue_type": "ice_rink",
    "address": "131-04 Meridian Rd, Queens, NY 11368, United States",
    "city": "Queens",
    "state": "NY",
    "zip_code": "11368",
    "country": "US",
    "latitude": 40.75168780000001,
    "longitude": -73.8374802,
    "rating": 4.1,
    "review_count": 668,
    "google_place_id": "ChIJHzwgs9xfwokRPE32yHy7Iuo",
    "description": "World Ice Arena - 131-04 Meridian Rd, Queens, NY 11368, United States"
  },
  {
    "name": "The Rink at Brookfield Place with Gregory & Petukhov",
    "sport_type": "ice_skating",
    "venue_type": "ice_rink",
    "address": "Three World Financial Center, 230 Vesey St, New York, NY 10281, United States",
    "city": "New York",
    "state": "NY",
    "zip_code": "10281",
    "country": "US",
    "latitude": 40.7130393,
    "longitude": -74.0154858,
    "rating": 4.4,
    "review_count": 446,
    "google_place_id": "ChIJMbbWABtawokROBKxcaV0rYU",
    "description": "The Rink at Brookfield Place with Gregory & Petukhov - Three World Financial Center, 230 Vesey St, New York, NY 10281, United States"
  },
  {
    "name": "Abe Stark Sports Center",
    "sport_type": "ice_skating",
    "venue_type": "ice_rink",
    "address": "1902 W 19th St, Brooklyn, NY 11214, United States",
    "city": "Brooklyn",
    "state": "NY",
    "zip_code": "11214",
    "country": "US",
    "latitude": 40.5730556,
    "longitude": -73.9858333,
    "rating": 4.1,
    "review_count": 180,
    "google_place_id": "ChIJaWpnrrVFwokRtqmo2GevVfc",
    "description": "Abe Stark Sports Center - 1902 W 19th St, Brooklyn, NY 11214, United States"
  },
  {
    "name": "Chelsea Piers Sky Rink",
    "sport_type": "ice_skating",
    "venue_type": "ice_rink",
    "address": "61 Chelsea Piers, New York, NY 10011, United States",
    "city": "New York",
    "state": "NY",
    "zip_code": "10011",
    "country": "US",
    "latitude": 40.7474381,
    "longitude": -74.0083832,
    "rating": 4.2,
    "review_count": 138,
    "google_place_id": "ChIJjwZNU6ZZwokRxBOeINCJu-I",
    "description": "Chelsea Piers Sky Rink - 61 Chelsea Piers, New York, NY 10011, United States"
  },
  {
    "name": "LeFrak Center at Lakeside",
    "sport_type": "ice_skating",
    "venue_type": "ice_rink",
    "address": "171 East Dr, Brooklyn, NY 11225, United States",
    "city": "Brooklyn",
    "state": "NY",
    "zip_code": "11225",
    "country": "US",
    "latitude": 40.6572752,
    "longitude": -73.96416110000001,
    "rating": 4.2,
    "review_count": 942,
    "google_place_id": "ChIJuSA1FxRbwokR9j_z5P9h4GY",
    "description": "LeFrak Center at Lakeside - 171 East Dr, Brooklyn, NY 11225, United States"
  },
  {
    "name": "Riverbank State Park Roller skating",
    "sport_type": "ice_skating",
    "venue_type": "ice_rink",
    "address": "679 Riverside Dr, New York, NY 10031, United States",
    "city": "New York",
    "state": "NY",
    "zip_code": "10031",
    "country": "US",
    "latitude": 40.8264146,
    "longitude": -73.95577469999999,
    "rating": 4.3,
    "review_count": 343,
    "google_place_id": "ChIJA4XptGP2wokRXisINhRsv4Y",
    "description": "Riverbank State Park Roller skating - 679 Riverside Dr, New York, NY 10031, United States"
  },
  {
    "name": "WWII Veterans Memorial Ice Skating Rink",
    "sport_type": "ice_skating",
    "venue_type": "ice_rink",
    "address": "1305 Victory Blvd, Staten Island, NY 10301, United States",
    "city": "Staten Island",
    "state": "NY",
    "zip_code": "10301",
    "country": "US",
    "latitude": 40.6157087,
    "longitude": -74.1077778,
    "rating": 4.1,
    "review_count": 149,
    "google_place_id": "ChIJTXAtEGJOwokRZZglxjX7gSs",
    "description": "WWII Veterans Memorial Ice Skating Rink - 1305 Victory Blvd, Staten Island, NY 10301, United States"
  },
  {
    "name": "City Ice Pavilion",
    "sport_type": "ice_skating",
    "venue_type": "ice_rink",
    "address": "47-32 32nd Pl, Long Island City, NY 11101, United States",
    "city": "Long Island City",
    "state": "NY",
    "zip_code": "11101",
    "country": "US",
    "latitude": 40.7416613,
    "longitude": -73.9333711,
    "rating": 4.2,
    "review_count": 338,
    "google_place_id": "ChIJKcw3CtNewokRpSovxoxqooA",
    "description": "City Ice Pavilion - 47-32 32nd Pl, Long Island City, NY 11101, United States"
  },
  {
    "name": "Skating at Bryant Park",
    "sport_type": "ice_skating",
    "venue_type": "ice_rink",
    "address": "5th Ave, New York, NY 10018, United States",
    "city": "New York",
    "state": "NY",
    "zip_code": "10018",
    "country": "US",
    "latitude": 40.7536931,
    "longitude": -73.9834296,
    "rating": 4.1,
    "review_count": 499,
    "google_place_id": "ChIJI05jvkNZwokR3b16KiuvIaI",
    "description": "Skating at Bryant Park - 5th Ave, New York, NY 10018, United States"
  },
  {
    "name": "Chelsea Piers",
    "sport_type": "ice_skating",
    "venue_type": "ice_rink",
    "address": "62 Chelsea Piers, New York, NY 10011, United States",
    "city": "New York",
    "state": "NY",
    "zip_code": "10011",
    "country": "US",
    "latitude": 40.7481792,
    "longitude": -74.0086142,
    "rating": 4.5,
    "review_count": 797,
    "google_place_id": "ChIJNcurQqBZwokRYDgoFu6QXCI",
    "description": "Chelsea Piers - 62 Chelsea Piers, New York, NY 10011, United States"
  },
  {
    "name": "Staten Island Skating Pavilion",
    "sport_type": "ice_skating",
    "venue_type": "ice_rink",
    "address": "3080 Arthur Kill Rd, Staten Island, NY 10309, United States",
    "city": "Staten Island",
    "state": "NY",
    "zip_code": "10309",
    "country": "US",
    "latitude": 40.5442207,
    "longitude": -74.2326906,
    "rating": 4.3,
    "review_count": 299,
    "google_place_id": "ChIJ76mTISW1w4kRGRbOi5kKwv4",
    "description": "Staten Island Skating Pavilion - 3080 Arthur Kill Rd, Staten Island, NY 10309, United States"
  },
  {
    "name": "Roebling Rink at Brooklyn Bridge Park",
    "sport_type": "ice_skating",
    "venue_type": "ice_rink",
    "address": "Emily Warren Roebling Plaza, Brooklyn Bridge Park, Brooklyn, NY 11201, United States",
    "city": "Brooklyn",
    "state": "NY",
    "zip_code": "11201",
    "country": "US",
    "latitude": 40.7038716,
    "longitude": -73.9940223,
    "rating": 3.7,
    "review_count": 352,
    "google_place_id": "ChIJiag5qoZbwokRTFzEFLFPnpc",
    "description": "Roebling Rink at Brooklyn Bridge Park - Emily Warren Roebling Plaza, Brooklyn Bridge Park, Brooklyn, NY 11201, United States"
  },
  {
    "name": "Aviator Sports & Events Center",
    "sport_type": "ice_skating",
    "venue_type": "ice_rink",
    "address": "3159 Flatbush Ave, Brooklyn, NY 11234, United States",
    "city": "Brooklyn",
    "state": "NY",
    "zip_code": "11234",
    "country": "US",
    "latitude": 40.5899252,
    "longitude": -73.8989484,
    "rating": 4.3,
    "review_count": 1561,
    "google_place_id": "ChIJO8LK5QVDwokROY8En6B8xWY",
    "description": "Aviator Sports & Events Center - 3159 Flatbush Ave, Brooklyn, NY 11234, United States"
  },
  {
    "name": "L.I.C. - ICE",
    "sport_type": "ice_skating",
    "venue_type": "ice_rink",
    "address": "10-12 46th Rd, Long Island City, NY 11101, United States",
    "city": "Long Island City",
    "state": "NY",
    "zip_code": "11101",
    "country": "US",
    "latitude": 40.745861,
    "longitude": -73.95248099999999,
    "rating": 4.7,
    "review_count": 39,
    "google_place_id": "ChIJGdKxoCZZwokRjqVgkGfYq0M",
    "description": "L.I.C. - ICE - 10-12 46th Rd, Long Island City, NY 11101, United States"
  },
  {
    "name": "American Dream",
    "sport_type": "ice_skating",
    "venue_type": "ice_rink",
    "address": "1 American Dream Wy, East Rutherford, NJ 07073, United States",
    "city": "East Rutherford",
    "state": "NJ",
    "zip_code": "07073",
    "country": "US",
    "latitude": 40.8091292,
    "longitude": -74.0685673,
    "rating": 4.5,
    "review_count": 40680,
    "google_place_id": "ChIJ3U3JLY35wokRfD602TzR6EE",
    "description": "American Dream - 1 American Dream Wy, East Rutherford, NJ 07073, United States"
  },
  {
    "name": "Newport Skates",
    "sport_type": "ice_skating",
    "venue_type": "ice_rink",
    "address": "95 River Dr S #89, Jersey City, NJ 07310, United States",
    "city": "Jersey City",
    "state": "NJ",
    "zip_code": "07310",
    "country": "US",
    "latitude": 40.7295416,
    "longitude": -74.0323306,
    "rating": 4.2,
    "review_count": 197,
    "google_place_id": "ChIJ_WqKRFZXwokR-2ewX4fLmB8",
    "description": "Newport Skates - 95 River Dr S #89, Jersey City, NJ 07310, United States"
  },
  {
    "name": "Industry City Ice Rink",
    "sport_type": "ice_skating",
    "venue_type": "ice_rink",
    "address": "51 35th St, Brooklyn, NY 11232, United States",
    "city": "Brooklyn",
    "state": "NY",
    "zip_code": "11232",
    "country": "US",
    "latitude": 40.6560844,
    "longitude": -74.00674579999999,
    "rating": 3.9,
    "review_count": 33,
    "google_place_id": "ChIJDSC7MOdbwokRcvjkRA3X8NM",
    "description": "Industry City Ice Rink - 51 35th St, Brooklyn, NY 11232, United States"
  },
  {
    "name": "The Rink at Manhattan West",
    "sport_type": "ice_skating",
    "venue_type": "ice_rink",
    "address": "385 9th Ave Suite #95, New York, NY 10001, United States",
    "city": "New York",
    "state": "NY",
    "zip_code": "10001",
    "country": "US",
    "latitude": 40.7523775,
    "longitude": -73.99826159999999,
    "rating": 4.3,
    "review_count": 32,
    "google_place_id": "ChIJeTAt5k1ZwokR516zFpP2Fsc",
    "description": "The Rink at Manhattan West - 385 9th Ave Suite #95, New York, NY 10001, United States"
  },
  {
    "name": "The Rink at The Standard, High Line",
    "sport_type": "ice_skating",
    "venue_type": "ice_rink",
    "address": "848 Washington St, New York, NY 10014, United States",
    "city": "New York",
    "state": "NY",
    "zip_code": "10014",
    "country": "US",
    "latitude": 40.740945,
    "longitude": -74.0081454,
    "rating": 3.9,
    "review_count": 15,
    "google_place_id": "ChIJp9d_RB5ZwokRRBN3-oF3SsY",
    "description": "The Rink at The Standard, High Line - 848 Washington St, New York, NY 10014, United States"
  },
  {
    "name": "The Rink at MetroTech",
    "sport_type": "ice_skating",
    "venue_type": "ice_rink",
    "address": "2 MetroTech Center, Brooklyn, NY 11201, United States",
    "city": "Brooklyn",
    "state": "NY",
    "zip_code": "11201",
    "country": "US",
    "latitude": 40.6943118,
    "longitude": -73.98587719999999,
    "rating": 3.6,
    "review_count": 5,
    "google_place_id": "ChIJ021r9r5bwokRud4CRoGyH34",
    "description": "The Rink at MetroTech - 2 MetroTech Center, Brooklyn, NY 11201, United States"
  },
  {
    "name": "Vale Rink",
    "sport_type": "ice_skating",
    "venue_type": "ice_rink",
    "address": "121 N 12th St, Brooklyn, NY 11249, United States",
    "city": "Brooklyn",
    "state": "NY",
    "zip_code": "11249",
    "country": "US",
    "latitude": 40.722167,
    "longitude": -73.9567204,
    "rating": 1.5,
    "review_count": 95,
    "google_place_id": "ChIJ8_g5whhZwokRdOo6hfYB_hA",
    "description": "Vale Rink - 121 N 12th St, Brooklyn, NY 11249, United States"
  },
  {
    "name": "Xanadu Roller Arts",
    "sport_type": "roller_skating",
    "venue_type": "roller_rink",
    "address": "262 Starr St, Brooklyn, NY 11237, United States",
    "city": "Brooklyn",
    "state": "NY",
    "zip_code": "11237",
    "country": "US",
    "latitude": 40.7064593,
    "longitude": -73.9214235,
    "rating": 4.3,
    "review_count": 415,
    "google_place_id": "ChIJuSehlLJdwokRpCw1h7U-OFA",
    "description": "Xanadu Roller Arts - 262 Starr St, Brooklyn, NY 11237, United States"
  },
  {
    "name": "Pier 2 Roller Rink",
    "sport_type": "roller_skating",
    "venue_type": "roller_rink",
    "address": "150 Furman St Pier 2, Brooklyn, NY 11201, United States",
    "city": "Brooklyn",
    "state": "NY",
    "zip_code": "11201",
    "country": "US",
    "latitude": 40.6995684,
    "longitude": -73.9988067,
    "rating": 4.3,
    "review_count": 595,
    "google_place_id": "ChIJg_8o6ThawokREmtsK7jXGZQ",
    "description": "Pier 2 Roller Rink - 150 Furman St Pier 2, Brooklyn, NY 11201, United States"
  },
  {
    "name": "The Rink At Rockefeller Center",
    "sport_type": "roller_skating",
    "venue_type": "roller_rink",
    "address": "600 5th Avenue, Rockefeller Center, New York, NY 10020, United States",
    "city": "New York",
    "state": "NY",
    "zip_code": "10020",
    "country": "US",
    "latitude": 40.7586996,
    "longitude": -73.978375,
    "rating": 4.5,
    "review_count": 1654,
    "google_place_id": "ChIJ-YgSkP5YwokRcudEVWB_-Qk",
    "description": "The Rink At Rockefeller Center - 600 5th Avenue, Rockefeller Center, New York, NY 10020, United States"
  },
  {
    "name": "United Skates of America Roller Skating Massapequa",
    "sport_type": "roller_skating",
    "venue_type": "roller_rink",
    "address": "1276 Hicksville Rd, North Massapequa, NY 11783, United States",
    "city": "North Massapequa",
    "state": "NY",
    "zip_code": "11783",
    "country": "US",
    "latitude": 40.6939286,
    "longitude": -73.4811113,
    "rating": 4.3,
    "review_count": 2856,
    "google_place_id": "ChIJw9-Sk5B_wokRF-G98yt-BJA",
    "description": "United Skates of America Roller Skating Massapequa - 1276 Hicksville Rd, North Massapequa, NY 11783, United States"
  },
  {
    "name": "LeFrak Center at Lakeside",
    "sport_type": "roller_skating",
    "venue_type": "roller_rink",
    "address": "171 East Dr, Brooklyn, NY 11225, United States",
    "city": "Brooklyn",
    "state": "NY",
    "zip_code": "11225",
    "country": "US",
    "latitude": 40.6572752,
    "longitude": -73.96416110000001,
    "rating": 4.2,
    "review_count": 942,
    "google_place_id": "ChIJuSA1FxRbwokR9j_z5P9h4GY",
    "description": "LeFrak Center at Lakeside - 171 East Dr, Brooklyn, NY 11225, United States"
  },
  {
    "name": "Wollman Rink",
    "sport_type": "roller_skating",
    "venue_type": "roller_rink",
    "address": "Q29G+46, 830 5th Ave, New York, NY 10065, United States",
    "city": "New York",
    "state": "NY",
    "zip_code": "10065",
    "country": "US",
    "latitude": 40.7677792,
    "longitude": -73.9744673,
    "rating": 4.3,
    "review_count": 1223,
    "google_place_id": "ChIJeelsevFYwokRqyH7P0aN2C8",
    "description": "Wollman Rink - Q29G+46, 830 5th Ave, New York, NY 10065, United States"
  },
  {
    "name": "Branch Brook Park Roller Skating Center",
    "sport_type": "roller_skating",
    "venue_type": "roller_rink",
    "address": "Clifton Avenue, 7th Ave, Newark, NJ 07104, United States",
    "city": "Newark",
    "state": "NJ",
    "zip_code": "07104",
    "country": "US",
    "latitude": 40.75207229999999,
    "longitude": -74.18119340000001,
    "rating": 4.4,
    "review_count": 2044,
    "google_place_id": "ChIJDcNCZo9UwokRNiv-Pqs5t8k",
    "description": "Branch Brook Park Roller Skating Center - Clifton Avenue, 7th Ave, Newark, NJ 07104, United States"
  },
  {
    "name": "Riverbank State Park Roller skating",
    "sport_type": "roller_skating",
    "venue_type": "roller_rink",
    "address": "679 Riverside Dr, New York, NY 10031, United States",
    "city": "New York",
    "state": "NY",
    "zip_code": "10031",
    "country": "US",
    "latitude": 40.8264146,
    "longitude": -73.95577469999999,
    "rating": 4.3,
    "review_count": 343,
    "google_place_id": "ChIJA4XptGP2wokRXisINhRsv4Y",
    "description": "Riverbank State Park Roller skating - 679 Riverside Dr, New York, NY 10031, United States"
  },
  {
    "name": "DiscOasis",
    "sport_type": "roller_skating",
    "venue_type": "roller_rink",
    "address": "Wollman Rink, Central Park S, New York, NY 10019, United States",
    "city": "New York",
    "state": "NY",
    "zip_code": "10019",
    "country": "US",
    "latitude": 40.7677677,
    "longitude": -73.97447939999999,
    "rating": 3.6,
    "review_count": 14,
    "google_place_id": "ChIJC4PvmOFZwokR1Lggwz_9WKg",
    "description": "DiscOasis - Wollman Rink, Central Park S, New York, NY 10019, United States"
  },
  {
    "name": "Rockaway Beach Boardwalk Roller Hockey Rink",
    "sport_type": "roller_skating",
    "venue_type": "roller_rink",
    "address": "10765-10799 Shore Front Pkwy, Rockaway Park, NY 11694, United States",
    "city": "Rockaway Park",
    "state": "NY",
    "zip_code": "11694",
    "country": "US",
    "latitude": 40.5796393,
    "longitude": -73.82971429999999,
    "rating": 4.7,
    "review_count": 193,
    "google_place_id": "ChIJk5CSAzJowokRS5_-XvwkGGw",
    "description": "Rockaway Beach Boardwalk Roller Hockey Rink - 10765-10799 Shore Front Pkwy, Rockaway Park, NY 11694, United States"
  },
  {
    "name": "Riverbank State Park",
    "sport_type": "roller_skating",
    "venue_type": "roller_rink",
    "address": "679 Riverside Dr, New York, NY 10031, United States",
    "city": "New York",
    "state": "NY",
    "zip_code": "10031",
    "country": "US",
    "latitude": 40.82642360000001,
    "longitude": -73.9559555,
    "rating": 4.6,
    "review_count": 4385,
    "google_place_id": "ChIJP_a7lmH2wokRMSi6hHf1eXA",
    "description": "Riverbank State Park - 679 Riverside Dr, New York, NY 10031, United States"
  },
  {
    "name": "Skater's Circle",
    "sport_type": "roller_skating",
    "venue_type": "roller_rink",
    "address": "New York, NY 10021, United States",
    "city": "New York",
    "state": "NY",
    "zip_code": "10021",
    "country": "US",
    "latitude": 40.7728623,
    "longitude": -73.9726024,
    "rating": 4.6,
    "review_count": 71,
    "google_place_id": "ChIJb6trwPJYwokRDQrqZ7lSa80",
    "description": "Skater's Circle - New York, NY 10021, United States"
  },
  {
    "name": "Florham Park Roller Rink",
    "sport_type": "roller_skating",
    "venue_type": "roller_rink",
    "address": "192 Ridgedale Ave, Florham Park, NJ 07932, United States",
    "city": "Florham Park",
    "state": "NJ",
    "zip_code": "07932",
    "country": "US",
    "latitude": 40.7875939,
    "longitude": -74.3896271,
    "rating": 4.3,
    "review_count": 281,
    "google_place_id": "ChIJq6pqCryow4kRp6iK-0k23h4",
    "description": "Florham Park Roller Rink - 192 Ridgedale Ave, Florham Park, NJ 07932, United States"
  },
  {
    "name": "Inline Skating Club of America",
    "sport_type": "roller_skating",
    "venue_type": "roller_rink",
    "address": "170 Schuyler Ave, North Arlington, NJ 07031, United States",
    "city": "North Arlington",
    "state": "NJ",
    "zip_code": "07031",
    "country": "US",
    "latitude": 40.7829859,
    "longitude": -74.12619099999999,
    "rating": 4.4,
    "review_count": 182,
    "google_place_id": "ChIJ-RU_5hf5wokRLcXDJ3rGz0s",
    "description": "Inline Skating Club of America - 170 Schuyler Ave, North Arlington, NJ 07031, United States"
  },
  {
    "name": "World Ice Arena",
    "sport_type": "roller_skating",
    "venue_type": "roller_rink",
    "address": "131-04 Meridian Rd, Queens, NY 11368, United States",
    "city": "Queens",
    "state": "NY",
    "zip_code": "11368",
    "country": "US",
    "latitude": 40.75168780000001,
    "longitude": -73.8374802,
    "rating": 4.1,
    "review_count": 668,
    "google_place_id": "ChIJHzwgs9xfwokRPE32yHy7Iuo",
    "description": "World Ice Arena - 131-04 Meridian Rd, Queens, NY 11368, United States"
  },
  {
    "name": "Skate Safe America Inc",
    "sport_type": "roller_skating",
    "venue_type": "roller_rink",
    "address": "182 Bethpage-Sweet Hollow Rd, Old Bethpage, NY 11804, United States",
    "city": "Old Bethpage",
    "state": "NY",
    "zip_code": "11804",
    "country": "US",
    "latitude": 40.76235339999999,
    "longitude": -73.44309609999999,
    "rating": 4.2,
    "review_count": 152,
    "google_place_id": "ChIJlxPFYmQq6IkRixvNQYxlxro",
    "description": "Skate Safe America Inc - 182 Bethpage-Sweet Hollow Rd, Old Bethpage, NY 11804, United States"
  },
  {
    "name": "Pier 2 Field at Brooklyn Bridge Park",
    "sport_type": "roller_skating",
    "venue_type": "roller_rink",
    "address": "150 Furman St, Brooklyn, NY 11201, United States",
    "city": "Brooklyn",
    "state": "NY",
    "zip_code": "11201",
    "country": "US",
    "latitude": 40.6951871,
    "longitude": -73.9988452,
    "rating": 4.8,
    "review_count": 116,
    "google_place_id": "ChIJTSQUwzhawokRPEZDAOhyVl0",
    "description": "Pier 2 Field at Brooklyn Bridge Park - 150 Furman St, Brooklyn, NY 11201, United States"
  },
  {
    "name": "George U. Harvey Park Rink",
    "sport_type": "roller_skating",
    "venue_type": "roller_rink",
    "address": "1-44 Whitestone Expy, Whitestone, NY 11357, United States",
    "city": "Whitestone",
    "state": "NY",
    "zip_code": "11357",
    "country": "US",
    "latitude": 40.7845536,
    "longitude": -73.8234418,
    "rating": 4.4,
    "review_count": 45,
    "google_place_id": "ChIJY1qUZLyKwokRxYZa4HRQo6c",
    "description": "George U. Harvey Park Rink - 1-44 Whitestone Expy, Whitestone, NY 11357, United States"
  },
  {
    "name": "CPDSA",
    "sport_type": "roller_skating",
    "venue_type": "roller_rink",
    "address": "Central Park, New York, NY 10065, United States",
    "city": "New York",
    "state": "NY",
    "zip_code": "10065",
    "country": "US",
    "latitude": 40.77304549999999,
    "longitude": -73.9725098,
    "rating": 5,
    "review_count": 1,
    "google_place_id": "ChIJocn5XD1ZwokRTEPKloHi_7E",
    "description": "CPDSA - Central Park, New York, NY 10065, United States"
  },
  {
    "name": "Roller rink- Cedar Creek Park",
    "sport_type": "roller_skating",
    "venue_type": "roller_rink",
    "address": "3340 Merrick Rd, Seaford, NY 11783, United States",
    "city": "Seaford",
    "state": "NY",
    "zip_code": "11783",
    "country": "US",
    "latitude": 40.6562919,
    "longitude": -73.5073056,
    "rating": 5,
    "review_count": 1,
    "google_place_id": "ChIJsZ8uMSV_wokR_BdUAcsnXdo",
    "description": "Roller rink- Cedar Creek Park - 3340 Merrick Rd, Seaford, NY 11783, United States"
  },
  {
    "name": "E J Murray Memorial Skating Center",
    "sport_type": "roller_skating",
    "venue_type": "roller_rink",
    "address": "348 Tuckahoe Rd, Yonkers, NY 10710, United States",
    "city": "Yonkers",
    "state": "NY",
    "zip_code": "10710",
    "country": "US",
    "latitude": 40.9521553,
    "longitude": -73.857068,
    "rating": 4.4,
    "review_count": 363,
    "google_place_id": "ChIJ6YiZGkftwokRsW5e5djmMvg",
    "description": "E J Murray Memorial Skating Center - 348 Tuckahoe Rd, Yonkers, NY 10710, United States"
  },
  {
    "name": "Blue Skate LLC",
    "sport_type": "roller_skating",
    "venue_type": "roller_rink",
    "address": "2331 Bergen Ave, Brooklyn, NY 11234, United States",
    "city": "Brooklyn",
    "state": "NY",
    "zip_code": "11234",
    "country": "US",
    "latitude": 40.618541,
    "longitude": -73.8988037,
    "rating": 5,
    "review_count": 6,
    "google_place_id": "ChIJSyAK1mRbwokREYQwqb5jC4k",
    "description": "Blue Skate LLC - 2331 Bergen Ave, Brooklyn, NY 11234, United States"
  },
  {
    "name": "Roller Hockey Rink",
    "sport_type": "roller_skating",
    "venue_type": "roller_rink",
    "address": "36-11 28th St, Long Island City, NY 11106, United States",
    "city": "Long Island City",
    "state": "NY",
    "zip_code": "11106",
    "country": "US",
    "latitude": 40.757245,
    "longitude": -73.933128,
    "rating": 5,
    "review_count": 1,
    "google_place_id": "ChIJp5dmbwBfwokRnsSAVN8fMzo",
    "description": "Roller Hockey Rink - 36-11 28th St, Long Island City, NY 11106, United States"
  },
  {
    "name": "Skating Evolution - Private Roller Skating Classes",
    "sport_type": "roller_skating",
    "venue_type": "roller_rink",
    "address": "39 Drive 52nd St, Woodside, NY 11377, United States",
    "city": "Woodside",
    "state": "NY",
    "zip_code": "11377",
    "country": "US",
    "latitude": 40.7475536,
    "longitude": -73.9114068,
    "rating": 4.9,
    "review_count": 54,
    "google_place_id": "ChIJicRa_cJOQ0ARAiUNt5PQs9g",
    "description": "Skating Evolution - Private Roller Skating Classes - 39 Drive 52nd St, Woodside, NY 11377, United States"
  },
  {
    "name": "The Rink at Brookfield Place with Gregory & Petukhov",
    "sport_type": "roller_skating",
    "venue_type": "roller_rink",
    "address": "Three World Financial Center, 230 Vesey St, New York, NY 10281, United States",
    "city": "New York",
    "state": "NY",
    "zip_code": "10281",
    "country": "US",
    "latitude": 40.7130393,
    "longitude": -74.0154858,
    "rating": 4.4,
    "review_count": 446,
    "google_place_id": "ChIJMbbWABtawokROBKxcaV0rYU",
    "description": "The Rink at Brookfield Place with Gregory & Petukhov - Three World Financial Center, 230 Vesey St, New York, NY 10281, United States"
  },
  {
    "name": "South Amboy Arena Rollermagic",
    "sport_type": "roller_skating",
    "venue_type": "roller_rink",
    "address": "270 N Stevens Ave, South Amboy, NJ 08879, United States",
    "city": "South Amboy",
    "state": "NJ",
    "zip_code": "08879",
    "country": "US",
    "latitude": 40.4848527,
    "longitude": -74.2900849,
    "rating": 4.2,
    "review_count": 787,
    "google_place_id": "ChIJPY5kkzXKw4kRGqJ-quNCsk8",
    "description": "South Amboy Arena Rollermagic - 270 N Stevens Ave, South Amboy, NJ 08879, United States"
  },
  {
    "name": "Wolfe's Pond Park Skating field",
    "sport_type": "roller_skating",
    "venue_type": "roller_rink",
    "address": "481 Cornelia Ave, Staten Island, NY 10312, United States",
    "city": "Staten Island",
    "state": "NY",
    "zip_code": "10312",
    "country": "US",
    "latitude": 40.5190984,
    "longitude": -74.1873938,
    "rating": 5,
    "review_count": 3,
    "google_place_id": "ChIJLUN0YPlLwokR0hUEj_9bzME",
    "description": "Wolfe's Pond Park Skating field - 481 Cornelia Ave, Staten Island, NY 10312, United States"
  },
  {
    "name": "Chelsea Piers Sky Rink",
    "sport_type": "roller_skating",
    "venue_type": "roller_rink",
    "address": "61 Chelsea Piers, New York, NY 10011, United States",
    "city": "New York",
    "state": "NY",
    "zip_code": "10011",
    "country": "US",
    "latitude": 40.7474381,
    "longitude": -74.0083832,
    "rating": 4.2,
    "review_count": 138,
    "google_place_id": "ChIJjwZNU6ZZwokRxBOeINCJu-I",
    "description": "Chelsea Piers Sky Rink - 61 Chelsea Piers, New York, NY 10011, United States"
  },
  {
    "name": "Flipper\u2019s Roller Boogie Palace",
    "sport_type": "roller_skating",
    "venue_type": "roller_rink",
    "address": "600 5th Ave, New York, NY 10020, United States",
    "city": "New York",
    "state": "NY",
    "zip_code": "10020",
    "country": "US",
    "latitude": 40.7587453,
    "longitude": -73.9783921,
    "rating": 4.3,
    "review_count": 68,
    "google_place_id": "ChIJ9QMiovlZwokRBCJYAlSW_1M",
    "description": "Flipper\u2019s Roller Boogie Palace - 600 5th Ave, New York, NY 10020, United States"
  },
  {
    "name": "Brooklyn Skates Club",
    "sport_type": "roller_skating",
    "venue_type": "roller_rink",
    "address": "110 Kosciuszko St, Brooklyn, NY 11216, United States",
    "city": "Brooklyn",
    "state": "NY",
    "zip_code": "11216",
    "country": "US",
    "latitude": 40.6905321,
    "longitude": -73.95063139999999,
    "rating": 4.9,
    "review_count": 8,
    "google_place_id": "ChIJ_3_jIolbwokR8Jv5w2f-Mgg",
    "description": "Brooklyn Skates Club - 110 Kosciuszko St, Brooklyn, NY 11216, United States"
  },
  {
    "name": "Da Dome Skating Rink",
    "sport_type": "roller_skating",
    "venue_type": "roller_rink",
    "address": "1100 Linwood St, Brooklyn, NY 11208, United States",
    "city": "Brooklyn",
    "state": "NY",
    "zip_code": "11208",
    "country": "US",
    "latitude": 40.6581115,
    "longitude": -73.874443,
    "rating": 3.6,
    "review_count": 65,
    "google_place_id": "ChIJVw1l-nddwokR-ZPwBYcGX7o",
    "description": "Da Dome Skating Rink - 1100 Linwood St, Brooklyn, NY 11208, United States"
  },
  {
    "name": "Roll-A-Rama at the Runway Rink",
    "sport_type": "roller_skating",
    "venue_type": "roller_rink",
    "address": "JFK Access Rd, Queens, NY 11430, United States",
    "city": "Queens",
    "state": "NY",
    "zip_code": "11430",
    "country": "US",
    "latitude": 40.6459711,
    "longitude": -73.7770638,
    "rating": 5,
    "review_count": 3,
    "google_place_id": "ChIJV5xhTAtnwokRo9P9ATGJecY",
    "description": "Roll-A-Rama at the Runway Rink - JFK Access Rd, Queens, NY 11430, United States"
  }
]